No,store,address,phone,address2,경도,위도,상태
1,학동역 DT점,서울시 강남구 학동로 211 1층  ,02-3444-9973,서울특별시 강남구 학동로 211 1층,127.0320525,37.51467837,정좌표
2,수서점,서울시 강남구 광평로 280 수서동 724호  ,02-3412-2326,서울특별시 강남구 광평로 280 수서동 724호,127.1031081,37.48731864,정좌표
3,차병원점,서울시 강남구 논현로 566 강남차병원1층  ,02-538-7615,서울특별시 강남구 논현로 566 강남차병원1층,127.0348243,37.50643973,정좌표
4,강남대로점,서울시 서초구 강남대로 369 1층  ,02-588-5778,서울특별시 서초구 강남대로 369 1층,127.0282167,37.4956614,정좌표
5,메가박스점,서울 강남구 삼성동 159 코엑스몰 지하2층  ,02-6002-3320,서울특별시 강남구 삼성동 159 코엑스몰 지하2층,127.058795,37.51251183,정좌표
6,압구정에스점,서울시 강남구 압구정로 46길 3  ,02-541-5832,서울특별시 강남구 압구정로 46길 3,127.0369049,37.52827876,정좌표
7,강남에스점,서울시 서초구 서초 1306-3호  ,02-593-5095,서울특별시 서초구 서초 1306-3호,127.025949,37.500449,
8,청담에스점,"서울시 강남구 압구정로 461 네이처포엠빌딩B108,109호  ",02-548-6052,"서울특별시 강남구 압구정로 461 네이처포엠빌딩B108,109호",127.0472328,37.52525528,정좌표
9,신사점,서울시 강남구 도산대로 126  ,02-548-2741,서울특별시 강남구 도산대로 126,127.0224111,37.5169687,정좌표
10,압구정역점,서울시 강남구 논현로 842 압구정빌딩1층  ,02-544-6823,서울특별시 강남구 논현로 842 압구정빌딩1층,127.0287312,37.52403926,정좌표
11,역삼점,"서울시 강남구 논현로 512  지상1,2층  ",02-569-8051,"서울특별시 강남구 논현로 512 지상1,2층",127.0365213,37.50234973,정좌표
12,양재스포타임점,서울시 서초구 강남대로 213 24호 지하1층  ,02-578-6833,서울특별시 서초구 강남대로 213 24호 지하1층,127.0356121,37.48234264,정좌표
13,청담성당점,서울시 강남구 삼성로 716 LEE76빌딩2층  ,02-542-2053,서울특별시 강남구 삼성로 716 LEE76빌딩2층,127.0500321,37.5198984,정좌표
14,영동점,서울 서초구 반포동 736-17 P빌딩 2층  ,02-3443-2096,서울특별시 서초구 반포동 736-17 P빌딩 2층,127.0227993,37.50684224,정좌표
15,도곡점,"서울시 강남구 언주로 30길 10,112 현대비젼21 112호  ",02-572-2781,"서울특별시 강남구 언주로 30길 10,112 현대비젼21 112호",127.0515544,37.48733918,정좌표
16,영동고앞점,"서울시 강남구 선릉로 749 1,2층  ",02-544-3794,"서울특별시 강남구 선릉로 749 1,2층",127.0394756,37.52145762,정좌표
17,공항터미널앞점,서울시 강남구 테헤란로 87길 17 1층  ,02-539-5174,서울특별시 강남구 테헤란로 87길 17 1층,127.0583425,37.50874284,정좌표
18,교대점,서울시 서초구 서초중앙로 118  1층  ,02-585-3981,서울특별시 서초구 서초중앙로 118 1층,127.0142299,37.49239137,정좌표
19,대치한티점,서울시 강남구 선릉로 64길 23 1층  ,02-557-0510,서울특별시 강남구 선릉로 64길 23 1층,127.0541715,37.49829611,정좌표
20,압구정시티점,"서울시 강남구 도산대로49길 13 1층 17,18호  ",02-543-5922,"서울특별시 강남구 도산대로49길 13 1층 17,18호",127.0369605,37.52374174,정좌표
21,압구정로데오점,서울시 강남구 선릉로 157길 12 석전빌딩 1~4층  ,02-3445-5093,서울특별시 강남구 선릉로 157길 12 석전빌딩 1~4층,127.0390127,37.52611474,정좌표
22,서초우성점,서울시 서초구 강남대로 51길 1 511 TOWER  1층  ,02-582-0158,서울특별시 서초구 강남대로 51길 1 511 TOWER 1층,127.0302627,37.49128787,정좌표
23,논현팍스타워점,서울시 강남구 논현 231-13호 팍스타워지하1층  ,02-513-3870,서울특별시 강남구 논현 231-13호 팍스타워지하1층,127.036572,37.510182,
24,삼성오크우드점,서울 강남구 영동대로 513 컨벤션별관A동 지하 2층  ,02-3466-8507,서울특별시 강남구 영동대로 513 컨벤션별관A동 지하 2층,127.0591588,37.51182403,정좌표
25,트레이드타워점,서울시 강남구 영동대로 511 트레이드타워 지하1층  ,02-6002-6470,서울특별시 강남구 영동대로 511 트레이드타워 지하1층,127.0610231,37.51035608,정좌표
26,삼성봉은사거리점,"서울시 강남구 영동대로 607 12번지 1,2층  ",02-3443-5618,"서울특별시 강남구 영동대로 607 12번지 1,2층",127.0594893,37.51455187,정좌표
27,대치포스코뒷점,서울시 강남구 삼성로 85길 11 롯데캐슬아파트생활편익시설동  ,02-3453-8077,서울특별시 강남구 삼성로 85길 11 롯데캐슬아파트생활편익시설동,127.0563006,37.50497869,정좌표
28,반포엘루체점,서울시 서초구 신반포로 23 1141호 엘루체백화점내1층1013~1015호  ,02-3477-5571,서울특별시 서초구 신반포로 23 1141호 엘루체백화점내1층1013~1015호,126.9872322,37.50174829,정좌표
29,잠실신천점,서울시 송파구 석촌호수로 118 1층  ,02-416-9520,서울특별시 송파구 석촌호수로 118 1층,127.0900217,37.5074374,정좌표
30,서초지파이브점,"서울시 서초구 서초동 1685-8호 101~2호,113~4호,121호  ",02-3477-5580,"서울특별시 서초구 서초동 1685-8호 101~2호,113~4호,121호",127.0164416,37.49539619,정좌표
31,논현동수면센터점,서울시 강남구 논현로 717 1층  ,02-3443-5575,서울특별시 강남구 논현로 717 1층,127.0295373,37.51596182,정좌표
32,삼성전자강남사옥점,서울시 서초구 서초대로74길 11 지하2층  ,02-2055-1142,서울특별시 서초구 서초대로74길 11 지하2층,127.0269145,37.49663309,정좌표
33,삼성생명강남사옥점,서울시 서초구 서초대로74길 4 삼성생명보험서초타워내지하1층  ,02-581-5562,서울특별시 서초구 서초대로74길 4 삼성생명보험서초타워내지하1층,127.0257033,37.49674424,정좌표
34,방배카페골목점,서울특별시 서초구 방배중앙로 187  ,02-592-7794,서울특별시 서초구 방배중앙로 187,126.9855313,37.49570856,정좌표
35,역삼포스틸타워뒷점,서울시 강남구 테헤란로 20길 10 쓰리엠타워1층  ,02-554-9962,서울특별시 강남구 테헤란로 20길 10 쓰리엠타워1층,127.0341416,37.49908647,정좌표
36,테헤란로하이닉스뒷점,서울시 강남구 테헤란로 70길 12 1층  ,02-538-9927,서울특별시 강남구 테헤란로 70길 12 1층,127.0531595,37.50474268,정좌표
37,방배역점,"서울시 서초구 효령로 117  3,4층  ",02-521-4562,"서울특별시 서초구 효령로 117 3,4층",126.9969396,37.48146213,정좌표
38,삼성봉은사로점,서울시 강남구 봉은사로 628 엘슨빌딩1층  ,02-538-4523,서울특별시 강남구 봉은사로 628 엘슨빌딩1층,127.0641669,37.51467288,정좌표
39,방이점,서울시 송파구 오금로 11길 7  ,02-415-5561,서울특별시 송파구 오금로 11길 7,127.1079675,37.51455597,정좌표
40,매봉역점,서울시 강남구 논현로 38길 42 418호  ,02-529-9947,서울특별시 강남구 논현로 38길 42 418호,127.0450532,37.48557469,정좌표
41,남부터미널역점,서울시 서초구 서초중앙로 43 로얄타워1층  ,02-523-3671,서울특별시 서초구 서초중앙로 43 로얄타워1층,127.0155771,37.48553864,정좌표
42,강남역랭기지타워점,서울시 강남구 테헤란로4길 28 826-28호 1층  ,02-563-3655,서울특별시 강남구 테헤란로4길 28 826-28호 1층,127.0300941,37.49652292,정좌표
43,도심공항타워점,서울시 강남구 테헤란로87길 36 공항타워 1층  ,02-2016-5330,서울특별시 강남구 테헤란로87길 36 공항타워 1층,127.0585975,37.51023437,정좌표
44,청담카페점,"서울시 강남구 도산대로 67길 7,파크빌딩 1층  ",02-514-5622,"서울특별시 강남구 도산대로 67길 7,파크빌딩 1층",127.044387,37.52448828,정좌표
45,동부이촌동점,서울시 용산구 이촌로 303 현대아파트상가11동102호  ,02-792-3677,서울특별시 용산구 이촌로 303 현대아파트상가11동102호,126.9795134,37.51835238,정좌표
46,광화문점,서울 종로구 서린동 136 센트리얼빌딩 1층  ,02-3210-2326,서울특별시 종로구 서린동 136 센트리얼빌딩 1층,126.9788357,37.56977562,정좌표
47,대학로점,서울시 종로구 대학로 10길 5 1-60호  ,02-762-3146,서울특별시 종로구 대학로 10길 5 1-60호,127.0025803,37.58186177,정좌표
48,경희궁의아침점,서울시 종로구 새문안로3길 23 경희궁아침상가4단지105외  ,02-730-8896,서울특별시 종로구 새문안로3길 23 경희궁아침상가4단지105외,126.9722442,37.57254767,정좌표
49,홍대역점,서울시 마포구 홍익로 6길 26  ,02-333-4278,서울특별시 마포구 홍익로 6길 26,126.9232644,37.55546898,정좌표
50,순화점,서울시 중구 순화202  1-94 프레이저플레이스레지던스1층  ,02-2220-8198,서울특별시 중구 순화202 1-94 프레이저플레이스레지던스1층,126.969775,37.562742,
51,종로관철동점,"서울시 종로구 청계천로 83 11-4호 지하1,지상1~3층  ",02-738-5333,"서울특별시 종로구 청계천로 83 11-4호 지하1,지상1~3층",126.9867326,37.56848339,정좌표
52,소공동삼화빌딩점,서울 중구 남대문로7길 16 한컴빌딩 1층  ,02-753-8004,서울특별시 중구 남대문로7길 16 한컴빌딩 1층,126.9811629,37.5641652,정좌표
53,강변테크노마트점,서울시 광진구 광나루로56길 85 테크노마트9층35호  ,02-3424-5480,서울특별시 광진구 광나루로56길 85 테크노마트9층35호,127.0956918,37.5357246,정좌표
54,외대앞점,서울시 동대문구 이문로 106 1~3층  ,02-959-7750,서울특별시 동대문구 이문로 106 1~3층,127.0602171,37.59606712,정좌표
55,고대안암역점,서울시 성북구 개운사길8 101-3 1층  ,02-953-6652,서울특별시 성북구 개운사길8 101-3 1층,127.0295734,37.58698734,정좌표
56,순화동라마다호텔점,서울시 중구 칠패로 27 151호  ,02-3789-3347,서울특별시 중구 칠패로 27 151호,126.9720357,37.56026697,정좌표
57,왕십리민자역사점,서울시 성동구 왕십리 광장로 17 왕십리민자역사ENTER6내1층  ,02-2200-6120,서울특별시 성동구 왕십리 광장로 17 왕십리민자역사ENTER6내1층,127.0383945,37.56144191,정좌표
58,신촌역앞점,"서울시 서대문구 신촌역로 20  27-27,16,65,61호  ",02-312-5568,"서울특별시 서대문구 신촌역로 20 27-27,16,65,61호",126.94314,37.55838002,정좌표
59,세종문화회관옆점,서울 종로구 새문안로 9길 25 1층  ,02-720-5561,서울특별시 종로구 새문안로 9길 25 1층,126.9754815,37.57135087,정좌표
60,신촌점,서울시 서대문구 창천 18-26호 B1  ,02-363-5572,서울특별시 서대문구 창천 18-26호 B1,126.937324,37.556437,
61,건대스타시티점,서울시 광진구 자양동 227-342호 롯데백화점 옆 더클래식500건물 1층  ,02-444-9861,서울특별시 광진구 자양동 227-342호 롯데백화점 옆 더클래식500건물 1층,127.0711119,37.53877944,정좌표
62,하나은행경복궁역점,"서울시 종로구 사직로 130,1 현대적선빌딩1층  ",02-733-5108,"서울특별시 종로구 사직로 130,1 현대적선빌딩1층",126.9730631,37.57586143,정좌표
63,중계동은행사거리점,서울시 노원구 한글비석로 263 1층  ,02-931-3055,서울특별시 노원구 한글비석로 263 1층,127.0764707,37.65120979,정좌표
64,서울스퀘어점,서울시 중구 한강대로 416 지하1층  ,02-6456-8907,서울특별시 중구 한강대로 416 지하1층,126.9737513,37.55550425,정좌표
65,목동점,서울시 양천구 목동동로 293 현대41타워1층  ,02-2654-5981,서울특별시 양천구 목동동로 293 현대41타워1층,126.8674302,37.53979897,인근좌표
66,여의도34번지점,서울 영등포구 국제금융로 52 심팩빌딩 1층  ,02-783-2043,서울특별시 영등포구 국제금융로 52 심팩빌딩 1층,126.929506,37.5227285,정좌표
67,여의도교보증권점,서울시 영등포구 의사당대로 97 26-4 교보증권빌딩1층  ,02-783-6058,서울특별시 영등포구 의사당대로 97 26-4 교보증권빌딩1층,126.9245862,37.52251652,정좌표
68,시흥홈플러스점,서울시 금천구 시흥대로 201 1층  ,02-803-9994,서울특별시 금천구 시흥대로 201 1층,126.9007948,37.45190426,정좌표
69,여의도순복음교회옆점,서울시 영등포구 여의서로 43 한서리버파크2층  ,02-780-7758,서울특별시 영등포구 여의서로 43 한서리버파크2층,126.9248429,37.53072908,정좌표
70,부산광복동점,부산광역시 중구 창선동 2가 8-2  ,051-243-9105,부산광역시 중구 창선동 2가 8-2,129.0290109,35.09947288,정좌표
71,인천구월동점,"인천광역시 남동구 예술로 138 지상1,2층  ",032-421-3418,"인천광역시 남동구 예술로 138 지상1,2층",126.7010063,37.44624161,정좌표
72,대전탄방동점,대전시 서구 문정로76 1층  ,042-471-9805,대전광역시 서구 문정로76 1층,127.3876959,36.34641827,정좌표
73,일산라페스타점,경기도 고양시 일산동구 장항동 764 라페스타C동  ,031-907-2326,경기도 고양시 일산동구 장항동 764 라페스타C동,126.7685587,37.66155467,정좌표
74,일산웨스턴돔1호점,경기도 고양시 일산동구 정발산로 24 I동103~203호  ,031-931-5573,경기도 고양시 일산동구 정발산로 24 I동103~203호,126.7726562,37.65482478,정좌표
75,분당서현점,"경기도 성남시 분당구 분당로53번길 11 1층2,3호  ",031-705-8926,"경기도 성남시 분당구 분당로53번길 11 1층2,3호",127.1215528,37.38406732,정좌표
76,분당플라자점,경기도 성남시 분당구 황새울로 326 서현빌딩상가내2층  ,031-705-3188,경기도 성남시 분당구 황새울로 326 서현빌딩상가내2층,127.1218659,37.38513078,정좌표
77,분당차병원점,경기도 성남시 분당구 야탑동354 분당차병원신관1층분당차1호  ,031-781-0471,경기도 성남시 분당구 야탑동354 분당차병원신관1층분당차1호,127.1263281,37.41116553,인근좌표
78,분당수내점,경기도 성남시 분당구 황새울로 214번길8 MSPlaza내1층  ,031-713-9937,경기도 성남시 분당구 황새울로 214번길8 MSPlaza내1층,127.1123122,37.37813218,정좌표
79,동탄라마다호텔점,경기도 화성시 노작로 199 동탄라마다호텔107호~111호  ,031-8003-8374,경기도 화성시 노작로 199 동탄라마다호텔107호~111호,127.0746794,37.2058415,정좌표
80,일산킨텍스현대백화점점,경기도 고양시 일산서구 대화동 2602 현대백화점킨텍스점 5F  ,031-822-3575,경기도 고양시 일산서구 대화동 2602 현대백화점킨텍스점 5F,126.7514741,37.66790863,정좌표
81,창원상남동점,경남 창원시 성산구 중앙대로 104 마이우스오피스텔 123호 207호  ,055-211-0737,경상남도 창원시 성산구 중앙대로 104 마이우스오피스텔 123호 207호,128.6808112,35.22349186,정좌표
82,청주점,충북 청주시 상당구 상당로69번길20 2~4층  ,043-221-2373,충청북도 청주시 상당구 상당로69번길20 2~4층,127.4893009,36.63453669,정좌표
83,고대세종캠퍼스점,세종특별자치시 세종로 2511 고대세종캠퍼스호연학사4관1층  ,044-862-5144,세종특별자치시 세종로 2511 고대세종캠퍼스호연학사4관1층,127.2882121,36.61152416,정좌표
84,청주지웰시티점,"충북 청주시 흥덕구 대농로 17 지웰시티몰 1층 124-1,125,126호  ",043-238-3151,"충청북도 청주시 흥덕구 대농로 17 지웰시티몰 1층 124-1,125,126호",127.4242017,36.64450057,정좌표
85,무교CBTL점,서울 중구 세종대로 136 파이낸스빌딩  ,070-4140-7003,서울특별시 중구 세종대로 136 파이낸스빌딩,126.9782565,37.5684237,정좌표
86,국기원사거리점,서울시 강남구 테헤란로 8길 42 1층  ,02-552-7106 ,서울특별시 강남구 테헤란로 8길 42 1층,127.0321751,37.49615829,정좌표
87,무교점,"서울시 중구 태평로1 84호 SFC빌딩B1,1-4  ",02-753-2374,"서울특별시 중구 태평로1 84호 SFC빌딩B1,1-4",126.977854,37.568565,
88,남대문점,서울시 중구 후암로110 581호 서울시티타워1층  ,02-777-4217,서울특별시 중구 후암로110 581호 서울시티타워1층,126.9740485,37.55430344,정좌표
89,올림픽플라자,서울시 송파구 양재대로 1222 올림픽선수A 1층212~3호  ,02-402-3571,서울특별시 송파구 양재대로 1222 올림픽선수A 1층212~3호,127.132263,37.51568077,정좌표
90,대학로마로니에점,"서울시 종로구 대학로 12길 62 지하1층,지상1,2층  ",02-742-3318,"서울특별시 종로구 대학로 12길 62 지하1층,지상1,2층",127.0037046,37.58139897,정좌표
91,여의도역점,서울시 영등포구 의사당대로 108 아일렉스상가 1층 101호  ,02-784-5531,서울특별시 영등포구 의사당대로 108 아일렉스상가 1층 101호,126.9239923,37.52101504,정좌표
92,인사점,서울시 종로구 낙원동 272 오라카이스위츠 1층  ,02-6262-8100,서울특별시 종로구 낙원동 272 오라카이스위츠 1층,126.9873089,37.57299741,정좌표
93,테헤란로비젼타워점,서울시 강남구 테헤란로 312 707-2번지1층  ,02-558-7101,서울특별시 강남구 테헤란로 312 707-2번지1층,127.0450434,37.50293377,정좌표
94,서울대입구역점,"서울시 관악구 관악로 161 층일부 2,3층  ",02-882-3101,"서울특별시 관악구 관악로 161 층일부 2,3층",126.9521845,37.47960802,정좌표
95,코엑스인터점,서울시 강남구 봉은사로 524 코엑스 인터컨티넨탈아케이드  ,02-569-3103,서울특별시 강남구 봉은사로 524 코엑스 인터컨티넨탈아케이드,127.0571141,37.51294416,정좌표
96,수유역점,서울시 강북구 도봉로 352 효성네오인텔리안 101호  ,02-906-5571,서울특별시 강북구 도봉로 352 효성네오인텔리안 101호,127.0270333,37.63867588,정좌표
97,뉴압구정점,서울시 강남구 논현로 167길 9 낙산프라자 1층  ,02-545-3181,서울특별시 강남구 논현로 167길 9 낙산프라자 1층,127.0274266,37.52442055,정좌표
98,디큐브시티점,서울시 구로구 경인로 662 디큐브시티 4층  ,02-2210-9484,서울특별시 구로구 경인로 662 디큐브시티 4층,126.8882137,37.50812391,정좌표
99,삼청동점,서울시 종로구 삼청로 109  ,02-730-5177,서울특별시 종로구 삼청로 109,126.9817749,37.58513427,정좌표
100,충무로극동빌딩점,서울시 중구 퇴계로 173 남산스퀘어 1층  ,02-2273-3181,서울특별시 중구 퇴계로 173 남산스퀘어 1층,126.9910589,37.56182647,정좌표
101,현대자동차여의도점,서울시 영등포구 국제금융로 20 1층  ,02-783-3391,서울특별시 영등포구 국제금융로 20 1층,126.9272969,37.52488673,정좌표
102,포스코사거리점,서울시 강남구 테헤란로 439  ,02-508-7522 ,서울특별시 강남구 테헤란로 439,127.0551872,37.50682914,정좌표
103,선릉로93길점,서울시 강남구 선릉로93길 6(역삼동) 1층  ,02-552-3177,서울특별시 강남구 선릉로93길 6(역삼동) 1층,127.0478998,37.50568595,정좌표
104,강남역먹자골목점,서울시 강남구 테헤란로1길 29 1층일부 및 2.3층  ,02-552-6311,서울특별시 강남구 테헤란로1길 29 1층일부 및 2.3층,127.0272879,37.50010698,정좌표
105,삼성로점,"서울시 강남구 삼성로 551 1층,2층  ",02-552-9311 ,"서울특별시 강남구 삼성로 551 1층,2층",127.05415,37.51071008,정좌표
106,서초우성아파트앞점,서울시 서초구 사임당로 171(서초동) EWR빌딩 2층  ,02-522-7158 ,서울특별시 서초구 사임당로 171(서초동) EWR빌딩 2층,127.0283489,37.49272801,정좌표
107,선릉로86길점,서울시 강남구 선릉로86길 11  ,02-2051-8875,서울특별시 강남구 선릉로86길 11,127.0505871,37.50340459,정좌표
108,안국역점,"서울시 종로구 율곡로 47 1,2층  ",02-722-3356 ,"서울특별시 종로구 율곡로 47 1,2층",126.9845864,37.57633594,정좌표
109,뉴교보타워옆점,"서울시 서초구 강남대로 449-3 알고코리아빌딩 1,2층  ",02-591-5177,"서울특별시 서초구 강남대로 449-3 알고코리아빌딩 1,2층",127.0248829,37.50236091,정좌표
110,IFC MALL2호점,서울시 영등포구 국제금융로10 IFC B2층  ,02-6137-5054  ,서울특별시 영등포구 국제금융로10 IFC B2층,126.9248763,37.52517692,정좌표
111,상암SBS미디어센터점,서울시 마포구 상암산로 82 SBS프리즘타워 1층  ,02-2039-9027 ,서울특별시 마포구 상암산로 82 SBS프리즘타워 1층,126.8927736,37.57971546,정좌표
112,마리오아울렛점,서울시 금천구 디지털로9길 23 마리오-2관 패션타워3층  ,02-857-5501  ,서울특별시 금천구 디지털로9길 23 마리오-2관 패션타워3층,126.886477,37.47872058,정좌표
113,삼성금융플라자점,서울 강남구 테헤란로 419 삼성금융플라자1층  ,02-554-7591,서울특별시 강남구 테헤란로 419 삼성금융플라자1층,127.0521804,37.50587018,정좌표
114,명동나인트리호텔점,서울시 중구 명동10길 51 나인트리호텔 본관2층  ,02-771-9935 ,서울특별시 중구 명동10길 51 나인트리호텔 본관2층,126.9852027,37.56463398,인근좌표
115,이태원점,서울시 용산구 이태원로 189   ,02-794-3361,서울특별시 용산구 이태원로 189,126.9949229,37.53487016,정좌표
116,뉴가로수길점,서울시 강남구 압구정로12길 6  ,02-544-7105,서울특별시 강남구 압구정로12길 6,127.0223191,37.52353245,정좌표
117,서초뱅뱅사거리점,"서울시 서초구 강남대로 267 2,3층  ",02-523-8841 ,"서울특별시 서초구 강남대로 267 2,3층",127.0323372,37.48717003,정좌표
118,현대자동차성내점,"서울시 강동구 천호대로 1096 1,2F  ",02-485-3361 ,"서울특별시 강동구 천호대로 1096 1,2F",127.133229,37.53519709,정좌표
119,신림점,서울시 관악구 신림로 318 청암두산위브센티움1층  ,02-877-1194  ,서울특별시 관악구 신림로 318 청암두산위브센티움1층,126.9302525,37.4825745,정좌표
120,수원인계점,경기도 수원시 팔달구 권광로 195 학산빌딩1층   ,031-233-5631,경기도 수원시 팔달구 권광로 195 학산빌딩1층,127.0326851,37.26494693,정좌표
121,판교아브뉴프랑점,경기도 성남시 분당구 동판교로177번길 25  ,031-8016-8131,경기도 성남시 분당구 동판교로177번길 25,127.1135621,37.39732103,정좌표
122,일산원마운트점,경기도 고양시 일산서구 한류월드로 300 원마운트스포츠몰 1층  ,031-961-6520,경기도 고양시 일산서구 한류월드로 300 원마운트스포츠몰 1층,126.7545265,37.66455404,정좌표
123,명동성당앞점,"서울시 중구 명동길 73 1,2층  ",02-777-3363,"서울특별시 중구 명동길 73 1,2층",126.9861628,37.56426143,정좌표
124,울산현대백화점점,울산광역시 남구 삼산로 261 현대백화점5층  ,052-228-0560,울산광역시 남구 삼산로 261 현대백화점5층,129.3358122,35.5395696,정좌표
125,대구중앙로점,대구광역시 중구 중앙대로 412-18  ,053-428-3370,대구광역시 중구 중앙대로 412-18,128.5948654,35.86976825,정좌표
126,여의도교보증권카페점,서울시 영등포구 의사당대로 97 교보증권빌딩 2층  ,02-785-8845,서울특별시 영등포구 의사당대로 97 교보증권빌딩 2층,126.9245862,37.52251652,정좌표
127,상봉엔터식스점,서울시 중랑구 망우로 353 프레미어스엠코 엔터식스 B동 2층  ,02-437-8891,서울특별시 중랑구 망우로 353 프레미어스엠코 엔터식스 B동 2층,127.0916242,37.59833301,정좌표
128,여의도렉싱턴호텔옆점,서울시 영등포구 국회대로74길19 동우국제빌딩1층  ,02-782-3358,서울특별시 영등포구 국회대로74길19 동우국제빌딩1층,126.9219695,37.52982154,정좌표
129,목동트라팰리스점,서울시 양천구 오목로 299 트라팰리스 이스턴에비뉴 1층  ,02-2643-7725,서울특별시 양천구 오목로 299 트라팰리스 이스턴에비뉴 1층,126.8711567,37.52542922,정좌표
130,압구정현대아파트점,서울시 강남구 압구정로29길65 지하1층  ,02-518-3350,서울특별시 강남구 압구정로29길65 지하1층,127.027003,37.53181104,정좌표
131,역삼역4번출구점,서울시 강남구 테헤란로143 고운빌딩1층  ,02-508-1137,서울특별시 강남구 테헤란로143 고운빌딩1층,127.0348986,37.50062059,정좌표
132,시청역7번출구점,서울시 중구 세종대로84 2층  ,02-754-8852,서울특별시 중구 세종대로84 2층,126.9771793,37.56366316,정좌표
133,부평문화의거리점,"인천광역시 부평구 시장로29 1,2층  ",032-507-9901,"인천광역시 부평구 시장로29 1,2층",126.7256152,37.49367327,정좌표
134,강남대로센터점,서울시 강남구 강남대로442 흥국화재빌딩 2층   ,02-565-3345,서울특별시 강남구 강남대로442 흥국화재빌딩 2층,127.0260565,37.50206484,정좌표
135,구로G-ValleyMall,서울시 구로구 디지털로300 지밸리비즈플라자 2층  ,02-6344-3966,서울특별시 구로구 디지털로300 지밸리비즈플라자 2층,126.8965383,37.4849264,정좌표
136,내방역7번출구유중아트점,서울시 서초구 방배로178 유중아트센터1층  ,02-592-8861,서울특별시 서초구 방배로178 유중아트센터1층,126.9928428,37.48954334,정좌표
137,오리역애플플라자점,경기도 성남시 분당구 탄천상로151번길20 월드쇼핑 B동 1층  ,031-715-5638,경기도 성남시 분당구 탄천상로151번길20 월드쇼핑 B동 1층,127.1066859,37.34161104,정좌표
138,도심공항점,서울시 강남구 테헤란로87길22 도심공항터미널 지하1층  ,02-551-6456 ,서울특별시 강남구 테헤란로87길22 도심공항터미널 지하1층,127.0594433,37.50963245,정좌표
139,타임스퀘어점,서울시 영등포구 영중로15 타임스퀘어 1층  ,02-2635-8830,서울특별시 영등포구 영중로15 타임스퀘어 1층,126.9043784,37.51687186,정좌표
140,차병원사거리점,서울시 강남구 봉은사로207 KJ타워1층  ,02-542-8813,서울특별시 강남구 봉은사로207 KJ타워1층,127.0346629,37.50784071,정좌표
141,엔터식스한양대점,서울시 성동구 왕십리로241 서울숲더샵 판매시설201동 지하2층  ,02-6454-6216,서울특별시 성동구 왕십리로241 서울숲더샵 판매시설201동 지하2층,127.0402881,37.55583047,정좌표
142,CBTL(커피빈)파르나스몰점,서울시 강남구 테헤란로521 파르나스몰 지하1층  ,02-538-2008 ,서울특별시 강남구 테헤란로521 파르나스몰 지하1층,127.0608072,37.50919136,정좌표
143,광화문역1번출구점,서울시 종로구 새문안로5가길 7 1층 일부  ,02-723-3360,서울특별시 종로구 새문안로5가길 7 1층 일부,126.9740383,37.57277083,정좌표
144,현대프리미엄아울렛김포점,경기 김포시 고촌읍 전호리 654번지 현대프리미엄아울렛김포3층 618호  ,031-8048-2618,경기도 김포시 고촌읍 전호리 654번지 현대프리미엄아울렛김포3층 618호,126.7856016,37.59939684,정좌표
145,여의도신영증권별관점,서울시 영등포구 국제금융로8길6 신영증권별관빌딩2층  ,02-782-1125,서울특별시 영등포구 국제금융로8길6 신영증권별관빌딩2층,126.9296976,37.52180888,정좌표
146,이태원제일기획옆점,서울시 용산구 이태원로220(한남동) 1층  ,02-792-3560,서울특별시 용산구 이태원로220(한남동) 1층,126.9984836,37.53481773,정좌표
147,강남역GT타워옆점,서울시 서초구 서초대로73길12 세계빌딩1층   ,02-592-0053,서울특별시 서초구 서초대로73길12 세계빌딩1층,127.0257323,37.49854482,정좌표
148,광교아브뉴프랑점,"경기도 수원시 영통구 이의동 1332 광교아브뉴프랑 1층 A122,123호   ",031-216-9308,"경기도 수원시 영통구 이의동 1332 광교아브뉴프랑 1층 A122,123호",127.0504954,37.29066354,정좌표
149,광장동대한제지점,서울시 광진구 아차산로563(광장동) 대한제지빌딩 로비층  ,02-458-8166,서울특별시 광진구 아차산로563(광장동) 대한제지빌딩 로비층,127.1029302,37.54413402,정좌표
150,신천역점,서울시 송파구 올림픽로100 효창타워1층  ,02-417-8851,서울특별시 송파구 올림픽로100 효창타워1층,127.0816883,37.51141581,정좌표
151,포항영일대점,경상북도 포항시 북구 삼호로265번길1 NB-City복합시설1층104호  ,054-241-3372,경상북도 포항시 북구 삼호로265번길1 NB-City복합시설1층104호,129.3796575,36.06154148,정좌표
152,낙성대역점,"서울시 관악구 남부순환로1909 1,2층  ",02-875-3364,"서울특별시 관악구 남부순환로1909 1,2층",126.9616068,37.47811217,정좌표
153,진주LH본사점,경상남도 진주시 충의로 19 LH진주사옥 홍보관1층  ,055-763-3520,경상남도 진주시 충의로 19 LH진주사옥 홍보관1층,128.1447582,35.17901848,정좌표
154,인천공항탑승동130gate앞점,인천광역시 중구 공항로272 인천국제공항탑승동3층 FB-C5-57  ,032-743-7213 ,인천광역시 중구 공항로272 인천국제공항탑승동3층 FB-C5-57,126.4491058,37.4575366,정좌표
155,인천공항탑승동105gate앞점,인천광역시 중구 공항로272 인천국제공항탑승동3층 FB-C5-68  ,032-743-7223,인천광역시 중구 공항로272 인천국제공항탑승동3층 FB-C5-68,126.4491058,37.4575366,정좌표
156,용산아이파크몰점,서울시 용산구 한강대로23길55 현대아이파크몰용산 서관6층  ,02-2012-0631,서울특별시 용산구 한강대로23길55 현대아이파크몰용산 서관6층,126.9647414,37.52977194,정좌표
157,경주미탐시티점,경상북도 경주시 엑스포로80(천군동)1층  ,054-777-5982,경상북도 경주시 엑스포로80(천군동)1층,129.289869,35.83455728,인근좌표
158,석촌호수점,서울시 송파구 석촌호수로 222 제이타워 1층  ,02-415-1235,서울특별시 송파구 석촌호수로 222 제이타워 1층,127.1015532,37.50706891,정좌표
159,오목교역사거리점,"서울시 양천구 오목로 350 목동썬텍씨티빌딩 1층,2층  ",02-2653-8577 ,"서울특별시 양천구 오목로 350 목동썬텍씨티빌딩 1층,2층",126.8762665,37.52414819,정좌표
160,을지로입구역점,"서울시 중구 남대문로10길 6 1,2층   ",02-752-3348,"서울특별시 중구 남대문로10길 6 1,2층",126.9832503,37.56688182,정좌표
161,명동M플라자점,서울시 중구 명동8길 27(명동2가)  ,02-752-0888,서울특별시 중구 명동8길 27(명동2가),126.9852932,37.56403715,인근좌표
162,송도홈플러스점,인천광역시 연수구 송도국제대로 165(송도동) 홈플러스송도점1층  ,032-822-5905,인천광역시 연수구 송도국제대로 165(송도동) 홈플러스송도점1층,126.656372,37.38022604,정좌표
163,올림픽공원북2문앞점,서울시 강동구 강동대로193 1층  ,02-471-2372,서울특별시 강동구 강동대로193 1층,127.1280151,37.52456388,정좌표
164,고대참살이길점,"서울시 성북구 인촌로24길 25 (안암동5가) 2층,3층  ",02-923-7735,"서울특별시 성북구 인촌로24길 25 (안암동5가) 2층,3층",127.029562,37.585201,
165,예술의전당앞점,"서울특별시 서초구 반포대로4(서초동) 2층, 3층  ",02-583-8856,"서울특별시 서초구 반포대로4(서초동) 2층, 3층",127.0131845,37.48122598,정좌표
166,삼성역글라스타워뒷점,서울시 강남구 영동대로85길 9 (대치동) 서전빌딩1층  ,02-552-3363,서울특별시 강남구 영동대로85길 9 (대치동) 서전빌딩1층,127.0628971,37.50708993,정좌표
167,범계역로데오점,경기도 안양시 동안구 평촌대로 223번길 41(호계동 1045-9) 2층  ,031-476-9082,경기도 안양시 동안구 평촌대로 223번길 41(호계동 1045-9) 2층,126.9535115,37.39048928,정좌표
168,포스코옆삼성로86길점,서울특별시 강남구 삼성로86길 11 거봉빌딩 1층  ,02-569-7501,서울특별시 강남구 삼성로86길 11 거봉빌딩 1층,127.0582935,37.50589545,정좌표
169,상암한국지역정보개발원점,서울시 마포구 성암로301 KLID한국지역정보개발원 1층  ,02-376-9162,서울특별시 마포구 성암로301 KLID한국지역정보개발원 1층,126.8879378,37.58246887,정좌표
170,판교알파돔시티점,경기도 성남시 분당구 판교역로145(백현동) 판교알파돔 C2-3블럭 1층  ,031-8017-8556,경기도 성남시 분당구 판교역로145(백현동) 판교알파돔 C2-3블럭 1층,127.1088717,37.39397953,정좌표
171,대치동나무병원점,서울특별시 강남구 영동대로 225 나무병원1층 (대치동994-5)  ,02-562-9605,서울특별시 강남구 영동대로 225 나무병원1층 (대치동994-5),127.0676314,37.49925768,정좌표
172,분당정자점,경기도 성남시 분당구 정자일로 227(정자동) 백궁지엔느주차전용빌딩 1층  ,031-786-1906,경기도 성남시 분당구 정자일로 227(정자동) 백궁지엔느주차전용빌딩 1층,127.1056037,37.37070859,정좌표
173,신논현역점,서울특별시 강남구 봉은사로108 글라스톤빌딩1층  ,02-569-9061,서울특별시 강남구 봉은사로108 글라스톤빌딩1층,127.0255925,37.50453486,정좌표
174,강서그랜드아이파크점,서울시 강서구 화곡6동 1095번지 1층  ,02-2699-7462,서울특별시 강서구 화곡6동 1095번지 1층,126.85122,37.554946,
175,상암DDMC점,서울시 마포구 상암동 1610번지 DDMC 지하 1층  ,02-375-0994,서울특별시 마포구 상암동 1610번지 DDMC 지하 1층,126.892888,37.57844257,정좌표
176,연대동문회관점,"서울시 서대문구 대신동 50-5 1층,2층(B동)  ",02-362-8301,"서울특별시 서대문구 대신동 50-5 1층,2층(B동)",126.9432239,37.56308247,정좌표
177,평촌점,"경기도 안양시 동안구 시민대로327번길 6, W 에이스타워 1층  ",031-426-9065,"경기도 안양시 동안구 시민대로327번길 6, W 에이스타워 1층",126.9669641,37.39664965,정좌표
178,마두역점,경기도 고양시 일산동구 중앙로 1193 마두법조빌딩 1층  ,031-932-7018,경기도 고양시 일산동구 중앙로 1193 마두법조빌딩 1층,126.7766274,37.65309387,정좌표
179,수원역점,"경기도 수원시 팔달구 매산로 11,  2층  ",031-248-9593,"경기도 수원시 팔달구 매산로 11, 2층",127.0027253,37.26744568,정좌표
180,부천역점,경기도 부천시 부천로4 2층  ,032-668-7890,경기도 부천시 부천로4 2층,126.7834905,37.48446723,정좌표
181,장안점,"서울시 동대문구 장안동 372-1, 1층 일부 및 2층 전체  ",02-2249-9826,"서울특별시 동대문구 장안동 372-1, 1층 일부 및 2층 전체",127.0704755,37.57093841,정좌표
182,서초역1번출구점,서울시 서초구 서초대로 250 스타갤러리 브릿지 1층 101호  ,02-598-7741,서울특별시 서초구 서초대로 250 스타갤러리 브릿지 1층 101호,127.0091732,37.49197387,정좌표
183,수원망포역점,경기도 수원시 영통구 영통로 214번길 8 1층  ,031-273-8751,경기도 수원시 영통구 영통로 214번길 8 1층,127.0575762,37.24623159,정좌표
184,대치사거리점,서울시 강남구 삼성로 352 창진빌딩 1층 및 2층  ,02-569-9751,서울특별시 강남구 삼성로 352 창진빌딩 1층 및 2층,127.0590726,37.50304448,정좌표
185,매헌역점,서울시 서초구 동산로 1  1층  ,02-2058-0921,서울특별시 서초구 동산로 1 1층,127.0401361,37.46900214,정좌표
186,문래동점,서울시 영등포구 문래동6가 5번지 1층  ,02-2069-3157,서울특별시 영등포구 문래동6가 5번지 1층,126.8890182,37.51963552,정좌표
187,해운대점,부산시 해운대구 해운대 해변로277 다옴빌딩1층  ,051-746-8214,부산광역시 해운대구 해운대 해변로277 다옴빌딩1층,129.1615555,35.15988408,정좌표
188,역삼동태광타워점,서울시 강남구 역삼동 718-20  태광타워 1층  ,02-569-9867,서울특별시 강남구 역삼동 718-20 태광타워 1층,127.0398604,37.50101147,정좌표
189,수지동천점,경기 용인시 수지구 손곡로 95 송란빌딩 1층  ,031-896-9044,경기도 용인시 수지구 손곡로 95 송란빌딩 1층,127.0918085,37.33596412,정좌표
190,파주운정홈플러스점,경기도 파주시 청암로 17번길 17 1층  ,031-949-1408,경기도 파주시 청암로 17번길 17 1층,126.7367602,37.72956844,정좌표
191,잠원논현역점,서울시 서초구 신반포로47길 5 건물전체 1~3층  ,02-541-7404,서울특별시 서초구 신반포로47길 5 건물전체 1~3층,127.0194447,37.51094805,정좌표
192,천호역점,서울시 강동구 올림픽로 659 쌍용플래티넘리버 1층  ,02-488-5912,서울특별시 강동구 올림픽로 659 쌍용플래티넘리버 1층,127.1235647,37.54030441,정좌표
193,강남대점,경기도 용인시 기흥구 강남로 3 강남앤플러스 1층  ,031-693-6312,경기도 용인시 기흥구 강남로 3 강남앤플러스 1층,127.1261332,37.27105118,정좌표
194,홍대역8번출구점,서울시 마포구 양화로18안길 7 2층  ,02-338-9463,서울특별시 마포구 양화로18안길 7 2층,126.9250923,37.55683442,정좌표
195,산본역점,경기도 군포시 광정로58 1층 104호 및 2층  ,031-399-8812,경기도 군포시 광정로58 1층 104호 및 2층,126.9309815,37.35850709,정좌표
196,부천상동점,경기도 부천시 길주로 111 센타플라자 1층  ,032-329-9471,경기도 부천시 길주로 111 센타플라자 1층,126.7548844,37.50632714,정좌표
197,안양1번가점,경기도 안양시 만안구 안양로304번길 12 세진빌딩 2층  ,031-468-9096,경기도 안양시 만안구 안양로304번길 12 세진빌딩 2층,126.9219296,37.39941375,정좌표
198,원주AK플라자점,강원도 원주시 봉화로1 AK플라자원주점 1층  ,033-748-0631,강원도 원주시 봉화로1 AK플라자원주점 1층,127.9276442,37.34567994,정좌표
199,송파파크하비오B1점,"서울특별시 송파구 송파대로 111, 송파 파크하비오 하비오길 극장로 203동 지하1층  ",02-449-6797,"서울특별시 송파구 송파대로 111, 송파 파크하비오 하비오길 극장로 203동 지하1층",127.1240049,37.4814909,정좌표
200,화정중앙공원점,경기도 고양시 덕양구 화신로260번길 26 동민프라자 1층 103~107호  ,031-979-9402,경기도 고양시 덕양구 화신로260번길 26 동민프라자 1층 103~107호,126.8329933,37.63174233,정좌표
201,강남역12번출구점,서울특별시 강남구 테헤란로 111 2층  ,02-569-5838,서울특별시 강남구 테헤란로 111 2층,127.0292818,37.49888125,정좌표
202,서초부띠크모나코점,서울특별시 서초구 서초대로 397 부띠크모나코 1층  ,02-537-4662,서울특별시 서초구 서초대로 397 부띠크모나코 1층,127.0245161,37.49743351,정좌표
203,송파파크하비오점,서울특별시 송파구 송파대로 111 송파파크하비오 205동 1층 110-113  ,02-449-6881,서울특별시 송파구 송파대로 111 송파파크하비오 205동 1층 110-113,127.1240049,37.4814909,정좌표
204,문정역엠스테이트점,서울 송파구 문정동 643-1번지 엠스테이트 B동 지하1층  ,02-6177-9080,서울특별시 송파구 문정동 643-1번지 엠스테이트 B동 지하1층,127.1154627,37.48176792,인근좌표
205,상봉역점,서울특별시 중랑구 망우로 291 1층  ,02-493-8902,서울특별시 중랑구 망우로 291 1층,127.0847902,37.59644455,정좌표
206,강동경희대병원앞점,서울특별시 강동구 동남로 885 양지빌딩 1층  ,02-481-9938,서울특별시 강동구 동남로 885 양지빌딩 1층,127.1559766,37.55265378,정좌표
207,노원역점,"서울시 노원구 노해로 490, 길빌딩 2층  ",02-952-9577,"서울특별시 노원구 노해로 490, 길빌딩 2층",127.0624133,37.65441339,정좌표
208,합정역점,"서울시 마포구 독막로 13, 2층  ",02-338-9178,"서울특별시 마포구 독막로 13, 2층",126.9150651,37.54881276,정좌표
209,종각역점,서울시 종로구 종로 70 2층  ,02-739-6268,서울특별시 종로구 종로 70 2층,126.9851721,37.56991532,정좌표
210,평택소사점,"경기도 평택시 평남로 862, 로이드빌딩 1층  ",031-692-2405,"경기도 평택시 평남로 862, 로이드빌딩 1층",127.1115021,37.00046875,정좌표
211,몽촌토성역점,"서울시 송파구 방이동 44-2, 장은빌딩 1층  ",02-2141-0407,"서울특별시 송파구 방이동 44-2, 장은빌딩 1층",127.1127569,37.51692188,정좌표
212,도곡동지오빌딩점,"서울특별시 강남구 도곡동 543-1, 지오빌딩 B1층  ",02-2058-3027,"서울특별시 강남구 도곡동 543-1, 지오빌딩 B1층",127.0416509,37.4922289,정좌표
213,강북구청앞점,"서울특별시 강북구 한천로 139길 25, 1층 일부 및 2층 (수유동 191-70)  ",02-994-8878,"서울특별시 강북구 한천로 139길 25, 1층 일부 및 2층 (수유동 191-70)",127.025725,37.63909543,정좌표
214,송도트리플스트리트점," 인천 연수구 송도과학로 16번길 33-4 D동 119호,207호  ",032-310-9644,"인천광역시 연수구 송도과학로 16번길 33-4 D동 119호,207호",126.6628418,37.37866084,정좌표
215,구의삼성쉐르빌점,서울특별시 광진구 구의강변로 106 삼성쉐르빌 1층  ,02-2201-8953,서울특별시 광진구 구의강변로 106 삼성쉐르빌 1층,127.0948977,37.53985802,정좌표
216,여의도SK증권빌딩점,서울특별시 영등포구 국제금융로8길31 여의도SK증권빌딩점 1층  ,02-6484-5150,서울특별시 영등포구 국제금융로8길31 여의도SK증권빌딩점 1층,126.9280668,37.51974708,정좌표
217,현대시티몰가든파이브점,서울특별시 송파구 충민로 66 가든파이브 라이프동 테크노관 1층  ,02-2673-2110,서울특별시 송파구 충민로 66 가든파이브 라이프동 테크노관 1층,127.1249616,37.47761474,정좌표
218,합정푸르지오점,"서울특별시 마포구 월드컵로 3길 14, 푸르지오 2차 1층  ",02-338-7684,"서울특별시 마포구 월드컵로 3길 14, 푸르지오 2차 1층",126.9123434,37.55103566,정좌표
219,신논현역2번출구점,서울시 서초구 강남대로 475 2층  ,02-541-9650,서울특별시 서초구 강남대로 475 2층,127.0238596,37.50472619,정좌표
220,위례2차아이파크점,서울시 송파구 위례광장로 230 위례2차 아이파크 B동 1층  ,02-449-9703,서울특별시 송파구 위례광장로 230 위례2차 아이파크 B동 1층,127.1434018,37.4794295,정좌표
221,혜화역1번출구점,서울특별시 종로구 대학로 128 2층  ,02-766-7937,서울특별시 종로구 대학로 128 2층,127.0021627,37.58271412,정좌표
222,한성대입구역점,서울특별시 성북구 삼선교로 12 1층  ,02-766-7951,서울특별시 성북구 삼선교로 12 1층,127.0071408,37.58758875,정좌표
223,한티역디마크빌딩점,서울특별시 강남구 도곡로 408 디마크빌딩 1층  ,02-2052-6590,서울특별시 강남구 도곡로 408 디마크빌딩 1층,127.0552329,37.49662142,정좌표
224,논현201-5번지점,"서울특별시 강남구  강남대로112길 20 1층, 2층  ",02-541-9563,"서울특별시 강남구 강남대로112길 20 1층, 2층",127.0260503,37.505508,정좌표
225,부산수영역점,부산광역시 수영구 수영로 667 1층  ,051-759-9046,부산광역시 수영구 수영로 667 1층,129.114479,35.16535447,정좌표
226,부산정관점,"부산광역시 기장군 정관로 563 1층,2층  ",051-728-7435,"부산광역시 기장군 정관로 563 1층,2층",129.1756339,35.32191455,정좌표
227,수원송죽DT점,경기도 수원시 장안구 경수대로 989  ,031-248-6086,경기도 수원시 장안구 경수대로 989,127.0029261,37.30507849,정좌표
228,동교동삼거리점,서울특별시 마포구 양화로 196(동교동)  ,02-336-9198 ,서울특별시 마포구 양화로 196(동교동),126.9265156,37.55837471,정좌표
229,성남신흥점,경기도 성남시 수정구 수정로 190 (신흥동)  ,031-759-6675,경기도 성남시 수정구 수정로 190 (신흥동),127.140979,37.44342819,정좌표
230,응암동점 ,"서울시 은평구 은평로 121(응암동), 메디컬빌딩  ",02-389-6283,"서울특별시 은평구 은평로 121(응암동), 메디컬빌딩",126.9210942,37.60044546,정좌표
231,서수원이마트점,"경기도 수원시 권선구 수인로 291(구운동), 이마트 서수원점 1층  ",031-278-6593,"경기도 수원시 권선구 수인로 291(구운동), 이마트 서수원점 1층",126.9698248,37.28339166,정좌표
232,양천향교역점,서울특별시 강서구 강서로 457(마곡동)  ,02-3665-9506,서울특별시 강서구 강서로 457(마곡동),126.840422,37.56624343,정좌표
233,성균관대 자연과학캠퍼스점,"경기 수원시 장안구 서부로 2066, 성균관대 자연과학 캠퍼스 N센터 1층  ",031-278-7640,"경기도 수원시 장안구 서부로 2066, 성균관대 자연과학 캠퍼스 N센터 1층",126.9723733,37.29221412,정좌표
234,마곡마커스빌딩점 ,서울특별시 강서구 마곡동로 55 마커스빌딩 1층  ,02-6905-3030,서울특별시 강서구 마곡동로 55 마커스빌딩 1층,126.833037,37.56006724,정좌표
235,방이역4번출구점,서울 송파구 방이동 206-11  ,02-420-0386,서울특별시 송파구 방이동 206-11,127.1257654,37.50934495,정좌표
236,IFC MALL 3호점,서울시 영등포구 국제금융로10 IFC Mall L2(2층)  ,02-6137-5056,서울특별시 영등포구 국제금융로10 IFC Mall L2(2층),126.9248763,37.52517692,정좌표
237,동탄능동DT점,"경기도 화성시 능동 453-4,453-8,454-1 소재 건물(1~3층)  ",031-267-4182,"경기도 화성시 능동 453-4,453-8,454-1 소재 건물(1~3층)",127.0563334,37.21097887,정좌표
238,수원인계DT점,경기도 수원시 팔달구 인계로79 (인계동)  ,031-898-8818,경기도 수원시 팔달구 인계로79 (인계동),127.0264808,37.26887264,정좌표
239,인천공항 제2여객터미널 입구점,인천광역시 중구 운서동 2868 인천공항 제2터미널 1층 연번(23-124)  ,032-743-2894,인천광역시 중구 운서동 2868 인천공항 제2터미널 1층 연번(23-124),126.4336306,37.46858933,정좌표
240,부산서면서전로점,"부산광역시 부산진구 서전로 12, 1층  ",051-819-8708,"부산광역시 부산진구 서전로 12, 1층",129.0608719,35.1575235,정좌표
241,분당차병원본관앞점,경기도 성남시 분당구 야탑로64 DS타워 1층  ,031-8017-8243,경기도 성남시 분당구 야탑로64 DS타워 1층,127.1259787,37.4095025,정좌표
242,신용산역래미안점,서울시 용산구 한강대로95  ,02-2074-1049,서울특별시 용산구 한강대로95,126.9672866,37.52945211,정좌표
243,선릉역3번출구세방빌딩점,서울특별시 강남구 선릉로 433 세방빌딩 1층  ,02-2051-9328,서울특별시 강남구 선릉로 433 세방빌딩 1층,127.0489161,37.50377679,정좌표
